[
  {"id":"p001","name":"Ali AC Services","service":"AC Repair","lat":33.6844,"lng":73.0479,"sector":"G-13","city":"Islamabad","rating":4.7,"availability_slots":["09:00","11:00","14:00","16:00"],"price_base":1000,"reliability_score":0.92,"cancellation_rate":0.05,"specialization":"AC Specialist","review_sentiment_score":0.88,"experience_years":8,"phone":"+92-300-1234567","verified":true,"service_duration_minutes":90},
  {"id":"p002","name":"CoolFix Experts","service":"AC Repair","lat":33.69,"lng":73.055,"sector":"G-14","city":"Islamabad","rating":4.3,"availability_slots":["09:00","13:00"],"price_base":800,"reliability_score":0.85,"cancellation_rate":0.12,"specialization":"General Technician","review_sentiment_score":0.75,"experience_years":5,"phone":"+92-301-2345678","verified":false,"service_duration_minutes":60},
  {"id":"p003","name":"Tariq Climate Control","service":"AC Repair","lat":33.678,"lng":73.042,"sector":"G-11","city":"Islamabad","rating":4.5,"availability_slots":["10:00","15:00"],"price_base":1200,"reliability_score":0.9,"cancellation_rate":0.07,"specialization":"AC Specialist","review_sentiment_score":0.85,"experience_years":12,"phone":"+92-302-3456789","verified":true,"service_duration_minutes":90},
  {"id":"p004","name":"Hassan Plumbing Works","service":"Plumbing","lat":33.686,"lng":73.051,"sector":"G-13","city":"Islamabad","rating":4.6,"availability_slots":["08:00","11:00","14:00"],"price_base":700,"reliability_score":0.88,"cancellation_rate":0.08,"specialization":"Pipe Specialist","review_sentiment_score":0.82,"experience_years":10,"phone":"+92-303-4567890","verified":true,"service_duration_minutes":60},
  {"id":"p005","name":"Bilal Electric Co","service":"Electrician","lat":33.682,"lng":73.046,"sector":"G-13","city":"Islamabad","rating":4.8,"availability_slots":["09:00","12:00","15:00"],"price_base":900,"reliability_score":0.95,"cancellation_rate":0.03,"specialization":"Electrical Wiring Specialist","review_sentiment_score":0.92,"experience_years":15,"phone":"+92-304-5678901","verified":true,"service_duration_minutes":120},
  {"id":"p006","name":"Usman AC & Fridge Repair","service":"AC Repair","lat":33.705,"lng":73.07,"sector":"F-10","city":"Islamabad","rating":4.4,"availability_slots":["08:00","10:00","14:00","17:00"],"price_base":950,"reliability_score":0.87,"cancellation_rate":0.09,"specialization":"AC & Refrigeration","review_sentiment_score":0.8,"experience_years":7,"phone":"+92-305-6789012","verified":true,"service_duration_minutes":90},
  {"id":"p007","name":"Rapid Fix Technicians","service":"AC Repair","lat":33.66,"lng":73.03,"sector":"I-8","city":"Islamabad","rating":4.2,"availability_slots":["11:00","15:00"],"price_base":750,"reliability_score":0.8,"cancellation_rate":0.15,"specialization":"General Technician","review_sentiment_score":0.7,"experience_years":3,"phone":"+92-306-7890123","verified":false,"service_duration_minutes":60},
  {"id":"p008","name":"Shah Brothers Plumbing","service":"Plumbing","lat":33.673,"lng":73.04,"sector":"G-10","city":"Islamabad","rating":4.5,"availability_slots":["09:00","13:00","16:00"],"price_base":650,"reliability_score":0.89,"cancellation_rate":0.06,"specialization":"Bathroom & Kitchen Plumbing","review_sentiment_score":0.84,"experience_years":9,"phone":"+92-307-8901234","verified":true,"service_duration_minutes":60},
  {"id":"p009","name":"Kareem Carpenter Works","service":"Carpenter","lat":33.689,"lng":73.053,"sector":"G-14","city":"Islamabad","rating":4.6,"availability_slots":["10:00","14:00"],"price_base":1500,"reliability_score":0.91,"cancellation_rate":0.04,"specialization":"Furniture Repair & Woodwork","review_sentiment_score":0.87,"experience_years":14,"phone":"+92-308-9012345","verified":true,"service_duration_minutes":180},
  {"id":"p010","name":"CleanPro Services","service":"Cleaning","lat":33.681,"lng":73.049,"sector":"G-13","city":"Islamabad","rating":4.3,"availability_slots":["08:00","10:00","12:00"],"price_base":2000,"reliability_score":0.86,"cancellation_rate":0.1,"specialization":"Deep Cleaning","review_sentiment_score":0.79,"experience_years":4,"phone":"+92-309-0123456","verified":false,"service_duration_minutes":240},
  {"id":"p011","name":"Waqar Electric Services","service":"Electrician","lat":33.695,"lng":73.06,"sector":"F-11","city":"Islamabad","rating":4.5,"availability_slots":["09:00","11:00","14:00"],"price_base":850,"reliability_score":0.9,"cancellation_rate":0.07,"specialization":"Home Wiring & Appliances","review_sentiment_score":0.83,"experience_years":11,"phone":"+92-310-1234567","verified":true,"service_duration_minutes":120},
  {"id":"p012","name":"Ahmed AC Solutions","service":"AC Repair","lat":33.676,"lng":73.044,"sector":"G-11","city":"Islamabad","rating":4.1,"availability_slots":["13:00","16:00"],"price_base":700,"reliability_score":0.78,"cancellation_rate":0.18,"specialization":"Budget AC Repair","review_sentiment_score":0.65,"experience_years":2,"phone":"+92-311-2345678","verified":false,"service_duration_minutes":60},
  {"id":"p013","name":"Meher Painting Services","service":"Painter","lat":33.687,"lng":73.052,"sector":"G-14","city":"Islamabad","rating":4.7,"availability_slots":["08:00","10:00","13:00"],"price_base":3000,"reliability_score":0.93,"cancellation_rate":0.04,"specialization":"Interior & Exterior Painting","review_sentiment_score":0.9,"experience_years":16,"phone":"+92-312-3456789","verified":true,"service_duration_minutes":480},
  {"id":"p014","name":"Tech Home Repairs","service":"AC Repair","lat":33.668,"lng":73.038,"sector":"I-9","city":"Islamabad","rating":4.4,"availability_slots":["09:00","12:00","15:00"],"price_base":880,"reliability_score":0.88,"cancellation_rate":0.08,"specialization":"AC Specialist","review_sentiment_score":0.82,"experience_years":6,"phone":"+92-313-4567890","verified":true,"service_duration_minutes":90},
  {"id":"p015","name":"Khan Plumbing & Gas","service":"Plumbing","lat":33.683,"lng":73.047,"sector":"G-13","city":"Islamabad","rating":4.79,"availability_slots":["08:00","10:00","14:00","16:00"],"price_base":800,"reliability_score":0.94,"cancellation_rate":0.03,"specialization":"Plumbing & Gas Fitting","review_sentiment_score":0.91,"experience_years":13,"phone":"+92-314-5678901","verified":true,"service_duration_minutes":60},
  {"id":"p016","name":"Rawat AC Center","service":"AC Repair","lat":33.65,"lng":73.02,"sector":"Rawat","city":"Rawalpindi","rating":4.0,"availability_slots":["10:00","14:00"],"price_base":600,"reliability_score":0.75,"cancellation_rate":0.2,"specialization":"General Technician","review_sentiment_score":0.6,"experience_years":2,"phone":"+92-315-6789012","verified":false,"service_duration_minutes":60},
  {"id":"p017","name":"Zarrar Home Electrician","service":"Electrician","lat":33.684,"lng":73.05,"sector":"G-13","city":"Islamabad","rating":4.6,"availability_slots":["08:00","11:00","15:00"],"price_base":950,"reliability_score":0.91,"cancellation_rate":0.05,"specialization":"Smart Home & Solar","review_sentiment_score":0.88,"experience_years":8,"phone":"+92-316-7890123","verified":true,"service_duration_minutes":120},
  {"id":"p018","name":"SuperClean Home Care","service":"Cleaning","lat":33.692,"lng":73.058,"sector":"F-10","city":"Islamabad","rating":4.5,"availability_slots":["09:00","13:00"],"price_base":2500,"reliability_score":0.89,"cancellation_rate":0.06,"specialization":"Post-Construction Cleaning","review_sentiment_score":0.85,"experience_years":5,"phone":"+92-317-8901234","verified":true,"service_duration_minutes":360},
  {"id":"p019","name":"Furqan Wood Studio","service":"Carpenter","lat":33.672,"lng":73.041,"sector":"G-10","city":"Islamabad","rating":4.4,"availability_slots":["10:00","14:00","16:00"],"price_base":1200,"reliability_score":0.87,"cancellation_rate":0.09,"specialization":"Custom Furniture","review_sentiment_score":0.81,"experience_years":10,"phone":"+92-318-9012345","verified":false,"service_duration_minutes":180},
  {"id":"p020","name":"ColdBreeze AC Experts","service":"AC Repair","lat":33.6855,"lng":73.0515,"sector":"G-13","city":"Islamabad","rating":4.83,"availability_slots":["09:00","11:00","14:00"],"price_base":1100,"reliability_score":0.96,"cancellation_rate":0.02,"specialization":"AC Specialist","review_sentiment_score":0.95,"experience_years":18,"phone":"+92-319-0123456","verified":true,"service_duration_minutes":90},
  {"id":"p021","name":"Qureshi Electric House","service":"Electrician","lat":33.675,"lng":73.043,"sector":"G-11","city":"Islamabad","rating":4.3,"availability_slots":["10:00","13:00","17:00"],"price_base":800,"reliability_score":0.84,"cancellation_rate":0.11,"specialization":"Commercial & Residential","review_sentiment_score":0.77,"experience_years":7,"phone":"+92-320-1234567","verified":false,"service_duration_minutes":120},
  {"id":"p022","name":"Ansar Home Tutor","service":"Tutor","lat":33.685,"lng":73.0495,"sector":"G-13","city":"Islamabad","rating":4.7,"availability_slots":["16:00","18:00","20:00"],"price_base":1500,"reliability_score":0.93,"cancellation_rate":0.04,"specialization":"Maths & Sciences","review_sentiment_score":0.89,"experience_years":9,"phone":"+92-321-2345678","verified":true,"service_duration_minutes":60},
  {"id":"p023","name":"Nadia Beauty Salon","service":"Beautician","lat":33.683,"lng":73.048,"sector":"G-13","city":"Islamabad","rating":4.8,"availability_slots":["10:00","12:00","14:00","16:00"],"price_base":1500,"reliability_score":0.93,"cancellation_rate":0.04,"specialization":"Bridal & Party Makeup","review_sentiment_score":0.91,"experience_years":11,"phone":"+92-322-3456789","verified":true,"service_duration_minutes":120},
  {"id":"p024","name":"Hina Mehendi Artist","service":"Mehendi Artist","lat":33.687,"lng":73.052,"sector":"G-14","city":"Islamabad","rating":4.9,"availability_slots":["11:00","14:00","17:00"],"price_base":2000,"reliability_score":0.96,"cancellation_rate":0.02,"specialization":"Bridal & Arabic Mehendi","review_sentiment_score":0.95,"experience_years":12,"phone":"+92-323-4567890","verified":true,"service_duration_minutes":180},
  {"id":"p025","name":"Chef Nasir Home Cook","service":"Cook/Chef","lat":33.682,"lng":73.046,"sector":"G-13","city":"Islamabad","rating":4.7,"availability_slots":["09:00","12:00","15:00","18:00"],"price_base":2500,"reliability_score":0.91,"cancellation_rate":0.06,"specialization":"Pakistani & Continental Cuisine","review_sentiment_score":0.88,"experience_years":14,"phone":"+92-324-5678901","verified":true,"service_duration_minutes":180},
  {"id":"p026","name":"Imran Professional Driver","service":"Driver","lat":33.684,"lng":73.05,"sector":"G-13","city":"Islamabad","rating":4.6,"availability_slots":["07:00","09:00","14:00","18:00"],"price_base":1200,"reliability_score":0.9,"cancellation_rate":0.05,"specialization":"City & Airport Transfers","review_sentiment_score":0.86,"experience_years":8,"phone":"+92-325-6789012","verified":true,"service_duration_minutes":60},
  {"id":"p027","name":"Master Tailor Islamabad","service":"Tailor","lat":33.679,"lng":73.044,"sector":"G-11","city":"Islamabad","rating":4.5,"availability_slots":["10:00","13:00","16:00"],"price_base":800,"reliability_score":0.88,"cancellation_rate":0.07,"specialization":"Ladies & Gents Stitching","review_sentiment_score":0.84,"experience_years":20,"phone":"+92-326-7890123","verified":true,"service_duration_minutes":30},
  {"id":"p028","name":"Hafiz Welding Works","service":"Welder","lat":33.686,"lng":73.051,"sector":"G-13","city":"Islamabad","rating":4.4,"availability_slots":["08:00","11:00","15:00"],"price_base":1500,"reliability_score":0.87,"cancellation_rate":0.08,"specialization":"Gate & Railing Fabrication","review_sentiment_score":0.82,"experience_years":15,"phone":"+92-327-8901234","verified":false,"service_duration_minutes":240},
  {"id":"p029","name":"PC Doctors Islamabad","service":"Computer Repair","lat":33.695,"lng":73.06,"sector":"F-11","city":"Islamabad","rating":4.6,"availability_slots":["10:00","13:00","16:00"],"price_base":1200,"reliability_score":0.9,"cancellation_rate":0.06,"specialization":"Laptop & Desktop Repair","review_sentiment_score":0.87,"experience_years":9,"phone":"+92-328-9012345","verified":true,"service_duration_minutes":120},
  {"id":"p030","name":"Mobile Fix Express","service":"Mobile Repair","lat":33.682,"lng":73.047,"sector":"G-13","city":"Islamabad","rating":4.5,"availability_slots":["09:00","11:00","14:00","17:00"],"price_base":800,"reliability_score":0.88,"cancellation_rate":0.07,"specialization":"Screen & Battery Replacement","review_sentiment_score":0.85,"experience_years":7,"phone":"+92-329-0123456","verified":true,"service_duration_minutes":60},
  {"id":"p031","name":"Power Gen Services","service":"Generator Repair","lat":33.681,"lng":73.049,"sector":"G-13","city":"Islamabad","rating":4.7,"availability_slots":["08:00","12:00","16:00"],"price_base":1800,"reliability_score":0.92,"cancellation_rate":0.05,"specialization":"Generator & UPS Repair","review_sentiment_score":0.88,"experience_years":12,"phone":"+92-330-1234567","verified":true,"service_duration_minutes":120},
  {"id":"p032","name":"AquaClean Tank Services","service":"Water Tank Cleaning","lat":33.683,"lng":73.048,"sector":"G-13","city":"Islamabad","rating":4.8,"availability_slots":["08:00","10:00","14:00"],"price_base":2000,"reliability_score":0.94,"cancellation_rate":0.03,"specialization":"Overhead & Underground Tank Cleaning","review_sentiment_score":0.91,"experience_years":10,"phone":"+92-331-2345678","verified":true,"service_duration_minutes":120},
  {"id":"p033","name":"Rainbow Painters G-14","service":"Painter","lat":33.690,"lng":73.055,"sector":"G-14","city":"Islamabad","rating":4.6,"availability_slots":["08:00","12:00"],"price_base":2800,"reliability_score":0.90,"cancellation_rate":0.06,"specialization":"Interior Painting & Wallpaper","review_sentiment_score":0.86,"experience_years":8,"phone":"+92-332-3456789","verified":false,"service_duration_minutes":480},
  {"id":"p034","name":"Bright Star Tutor Academy","service":"Tutor","lat":33.695,"lng":73.058,"sector":"F-11","city":"Islamabad","rating":4.8,"availability_slots":["15:00","17:00","19:00"],"price_base":2000,"reliability_score":0.95,"cancellation_rate":0.03,"specialization":"O-Level & A-Level","review_sentiment_score":0.93,"experience_years":6,"phone":"+92-333-4567890","verified":true,"service_duration_minutes":90},
  {"id":"p035","name":"Gulshan Beauty Studio","service":"Beautician","lat":33.705,"lng":73.07,"sector":"F-10","city":"Islamabad","rating":4.6,"availability_slots":["11:00","13:00","15:00"],"price_base":1200,"reliability_score":0.88,"cancellation_rate":0.08,"specialization":"Facial & Hair Care","review_sentiment_score":0.84,"experience_years":8,"phone":"+92-334-5678901","verified":true,"service_duration_minutes":90}
]